<gpx xmlns:xsi="http://www.w3.org/2001/XMLSchema-instance" xsi:schemaLocation="http://www.topografix.com/GPX/1/1 http://www.topografix.com/GPX/1/1/gpx.xsd" version="1.1" creator="overpass-turbo"><wpt lat="22.6183336" lon="120.2785765"><name>香蕉碼頭海景餐廳</name><desc>amenity=restaurant
name=香蕉碼頭海景餐廳</desc><link href="http://osm.org/browse/node/2131737624"/></wpt><wpt lat="22.6261972" lon="120.2833269"><name>Pinguo Pinguo</name><desc>amenity=restaurant
cuisine=italian
name=Pinguo Pinguo
wheelchair=limited</desc><link href="http://osm.org/browse/node/2265659030"/></wpt><wpt lat="22.6241496" lon="120.2827097"><name>陶湘火鍋店</name><desc>amenity=restaurant
cuisine=chinese
name=陶湘火鍋店
opening_hours=11:00-14:00, 17:00-22:00</desc><link href="http://osm.org/browse/node/2265659047"/></wpt><wpt lat="22.6261884" lon="120.2833609"><name>飛碟漢堡</name><desc>amenity=restaurant
contact:phone=+886-7-5211388
cuisine=burger
name=飛碟漢堡
wheelchair=limited</desc><link href="http://osm.org/browse/node/2265659048"/></wpt><wpt lat="22.6241542" lon="120.2850782"><name>香港馬興記燒臘臘味專賣店</name><desc>amenity=restaurant
cuisine=chinese
name=香港馬興記燒臘臘味專賣店</desc><link href="http://osm.org/browse/node/2265882465"/></wpt><wpt lat="22.6235061" lon="120.2847313"><name>安順早午餐</name><desc>addr:city=高雄市
addr:housenumber=160
addr:postcode=803
addr:street=莒光街
amenity=restaurant
cuisine=sandwich
name=安順早午餐</desc><link href="http://osm.org/browse/node/2283987160"/></wpt><wpt lat="22.6236588" lon="120.2843288"><name>平津涮牛肉</name><desc>addr:city=高雄市
addr:housenumber=8
addr:postcode=803
addr:street=大勇路
amenity=restaurant
cuisine=chinese
name=平津涮牛肉
opening_hours=11:00-14:00, 17:00-21:00</desc><link href="http://osm.org/browse/node/2283987163"/></wpt><wpt lat="22.6240428" lon="120.285011"><name>朵菈鹽埕捷運店</name><desc>amenity=restaurant
contact:phone=+886-7-5331129
cuisine=sandwich
name=朵菈鹽埕捷運店</desc><link href="http://osm.org/browse/node/2283987214"/></wpt><wpt lat="22.6242777" lon="120.2851401"><name>麵子粉大</name><desc>amenity=restaurant
cuisine=chinese
name=麵子粉大
opening_hours=11:00-14:00, 17:00-20:00</desc><link href="http://osm.org/browse/node/2283987306"/></wpt><wpt lat="22.6255858" lon="120.2842423"><name>米糕城</name><desc>amenity=restaurant
name=米糕城</desc><link href="http://osm.org/browse/node/2410670334"/></wpt><wpt lat="22.6261334" lon="120.2842768"><name>三山國王廟虱目魚米粉</name><desc>amenity=restaurant
name=三山國王廟虱目魚米粉</desc><link href="http://osm.org/browse/node/2410670337"/></wpt><wpt lat="22.6230717" lon="120.2848512"><name>老宋牛肉麵</name><desc>amenity=restaurant
cuisine=chinese
name=老宋牛肉麵</desc><link href="http://osm.org/browse/node/2534984904"/></wpt><wpt lat="22.6248752" lon="120.2825662"><name>阿進切仔麵</name><desc>amenity=restaurant
cuisine=regional
name=阿進切仔麵
opening_hours=08:00-21:00</desc><link href="http://osm.org/browse/node/2929199376"/></wpt><wpt lat="22.6240184" lon="120.2841722"><name>MARS睦工場</name><desc>addr:city=高雄市
addr:district=鹽埕區
addr:housenumber=80
addr:street=大勇路
amenity=restaurant
cuisine=sandwich
name=MARS睦工場
tourism=hotel</desc><link href="http://osm.org/browse/node/3092600535"/></wpt><wpt lat="22.6255173" lon="120.2819264"><name>發財小館</name><desc>amenity=restaurant
cuisine=hong_kong
name=發財小館</desc><link href="http://osm.org/browse/node/3092600607"/></wpt><wpt lat="22.6260063" lon="120.2807868"><name>鴨肉珍</name><desc>amenity=restaurant
cuisine=regional
name=鴨肉珍</desc><link href="http://osm.org/browse/node/3092600610"/></wpt><wpt lat="22.6181387" lon="120.2855277"><name>Now&amp;Then</name><desc>amenity=restaurant
name=Now&amp;Then</desc><link href="http://osm.org/browse/node/3973932908"/></wpt><wpt lat="22.6184798" lon="120.2848147"><name>典藏駁二餐廳</name><desc>amenity=restaurant
name=典藏駁二餐廳</desc><link href="http://osm.org/browse/node/3973932941"/></wpt><metadata><copyright>The data included in this document is from www.openstreetmap.org. The data is made available under ODbL.</copyright><desc>Filtered OSM data converted to GPX by overpass turbo</desc><time>2016-05-21T09:00:00Z</time></metadata></gpx>